[{  "id":1,
    "src":"cards-img-1.png",
    "title": "Flogging Molly",
    "date":"29 May 18:00",
    "place":"Signature Brew Blackhorse Road",
    "tag": "punk",
    "price1": "20.47",
    "price2": "20.87",
    "geo": "51.509865, -0.118092",
    "town": "London"
},{
    "id":2,
    "src":"cards-img-2.png",   
    "title": "Unknown Mortal Orchestra",
    "date":"31 May 19:00",
    "place":"Troxy",
    "tag": "punk",
    "price1": "21.37",
    "price2": "22.83",
    "geo": "51.509865, -0.118092",
    "town": "London"
},{
    "id":3,
    "src":"cards-img-3.png",
    "title":"DELI GIRLS + GORESHIT + ALO3",
    "date":"31 May 18:00",
    "place":"MOTH Club",
    "tag": "punk",
    "price1": "27.42",
    "price2": "28.16",
    "geo": "51.509865, -0.118092",
    "town": "London"
},{
    "id":4,
    "src":"cards-img-4.png",
    "title":"Douglas in Fur / Jeez Lluis / Lady Sybil",
    "date":"1 Jun 19:00",
    "place":"The Four Thieves",
    "price1": "23.18",
    "price2": "24.32",
    "geo": "51.509865, -0.118092",
    "town": "London",
    "disabled": true
},{
    "id":5,
    "src":"cards-img-5.png",
    "title":"Silverhaus I",
    "date": "2 Jun 20:00",
    "place":"New Cross Inn",
    "tag": "punk",
    "price1": "30.12",
    "price2": "32.56",
    "geo": "52.489471, -1.898575",
    "town": "Birmingham"
},{
    "id":6,
    "src":"cards-img-6.png",
    "title":"Silverhaus I",
    "date":"2 Jun 20:00",
    "place":"The Fox & Firkin",
    "price1": "28.34",
    "price2": "30.12",
    "geo": "55.860916, -4.251433",
    "town": "Glasgow"
},{
    "id":7,
    "src":"cards-img-7.png",
    "title":"Silverhaus I",
    "date":"2 Jun 20:00",
    "place":"The Victoria",
    "price1": "24.12",
    "price2": "28.96",
    "geo": "51.509865, -0.118092",
    "town": "London"
},{ "id":8,      
    "src":"cards-img-8.png",
    "title":"Silverhaus I",
    "date":"2 Jun  20:00",
    "place":"The Victoria",
    "price1": "31.25",
    "price2": "33.67",
    "geo": "51.509865, -0.118092",
    "town": "London"
},{
    "id":9,
    "src":"cards-img-1.png",
    "title":"DELI GIRLS + GORESHIT + ALO3",
    "date":"2 Jun 20:00",
    "place":"The Victoria",
    "price1": "24.12",
    "price2": "27.14",
    "geo": "51.509865, -0.118092",
    "town": "London"
},{ "id":10,      
    "src":"cards-img-2.png",
    "title":"Silverhaus I",
    "date":"2 Jun  20:00",
    "place":"The Victoria",
    "price1": "31.25",
    "price2": "34.12",
    "geo": "51.509865, -0.118092",
    "town": "London"
}
]